{
  "type": "FeatureCollection",
  "roundInfo": {
    "number": 3,
    "endedAt": null,
    "language": "es"
  },
  "features": [
    {
      "type": "Feature",
      "id": "target",
      "geometry": {
        "type": "Point",
        "coordinates": [
          -61.11325,
          4.73209
        ]
      },
      "properties": {
        "player": "Target",
        "distance": null,
        "location": "Bolívar, Venezuela",
        "marker-symbol": "star",
        "marker-color": "#000000"
      }
    },
    {
      "type": "Feature",
      "geometry": {
        "type": "Point",
        "coordinates": [
          -61.128584924359075,
          10.585860154170948
        ]
      },
      "properties": {
        "player": "Johann Sebastian Bach",
        "distance": 650.9126337589009,
        "location": "Sangre Grande, Trinidad and Tobago",
        "marker-symbol": "circle",
        "marker-color": "#d4af37"
      }
    },
    {
      "type": "Feature",
      "geometry": {
        "type": "Point",
        "coordinates": [
          -55.1745861,
          5.8193861
        ]
      },
      "properties": {
        "player": "Norton",
        "distance": 668.5629092788763,
        "location": "Paramaribo, Suriname",
        "marker-symbol": "circle",
        "marker-color": "#c0c0c0"
      }
    },
    {
      "type": "Feature",
      "geometry": {
        "type": "Point",
        "coordinates": [
          -60.4933787,
          -3.1189445
        ]
      },
      "properties": {
        "player": "Rikk",
        "distance": 875.7084189695415,
        "location": "Amazonas, Brazil",
        "marker-symbol": "circle",
        "marker-color": "#cd7f32"
      }
    },
    {
      "type": "Feature",
      "geometry": {
        "type": "Point",
        "coordinates": [
          -61.36083,
          12.634484
        ]
      },
      "properties": {
        "player": "nhmartin4",
        "distance": 879.1279387050588,
        "location": "Grenadines, Saint Vincent and the Grenadines",
        "marker-symbol": "circle",
        "marker-color": "#444444"
      }
    },
    {
      "type": "Feature",
      "geometry": {
        "type": "Point",
        "coordinates": [
          -52.8345,
          5.3056
        ]
      },
      "properties": {
        "player": "mlc",
        "distance": 919.2315359727403,
        "location": "Cayenne, French Guiana",
        "marker-symbol": "circle",
        "marker-color": "#444444"
      }
    },
    {
      "type": "Feature",
      "geometry": {
        "type": "Point",
        "coordinates": [
          -59.487776,
          13.0792797
        ]
      },
      "properties": {
        "player": "maplemanatee",
        "distance": 945.1550213632345,
        "location": "Christ Church, Barbados",
        "marker-symbol": "circle",
        "marker-color": "#444444"
      }
    },
    {
      "type": "Feature",
      "geometry": {
        "type": "Point",
        "coordinates": [
          -60.9580734,
          13.7333061
        ]
      },
      "properties": {
        "player": "Daws",
        "distance": 1001.0355182600179,
        "location": "Vieux Fort, Saint Lucia",
        "marker-symbol": "circle",
        "marker-color": "#444444"
      }
    },
    {
      "type": "Feature",
      "geometry": {
        "type": "Point",
        "coordinates": [
          -68.37040476806294,
          12.233361505503758
        ]
      },
      "properties": {
        "player": "Summitblvd",
        "distance": 1154.017022893336,
        "location": "Bonaire, Bonaire, Sint Eustatius and Saba",
        "marker-symbol": "circle",
        "marker-color": "#444444"
      }
    },
    {
      "type": "Feature",
      "geometry": {
        "type": "Point",
        "coordinates": [
          -74.0035556,
          5.0235
        ]
      },
      "properties": {
        "player": "maclang23",
        "distance": 1428.491577489468,
        "location": "Cundinamarca, Colombia",
        "marker-symbol": "circle",
        "marker-color": "#444444"
      }
    },
    {
      "type": "Feature",
      "geometry": {
        "type": "Point",
        "coordinates": [
          -74.06612,
          4.60865
        ]
      },
      "properties": {
        "player": "BD82",
        "distance": 1435.558068996544,
        "location": "Bogotá D.C., Colombia",
        "marker-symbol": "circle",
        "marker-color": "#444444"
      }
    },
    {
      "type": "Feature",
      "geometry": {
        "type": "Point",
        "coordinates": [
          -75.1572132,
          6.2344252
        ]
      },
      "properties": {
        "player": "Patxepi",
        "distance": 1563.3432178551136,
        "location": "Antioquia, Colombia",
        "marker-symbol": "circle",
        "marker-color": "#444444"
      }
    },
    {
      "type": "Feature",
      "geometry": {
        "type": "Point",
        "coordinates": [
          -79.3873951,
          9.0676214
        ]
      },
      "properties": {
        "player": "georoulette",
        "distance": 2073.4728408023902,
        "location": "Panamá, Panama",
        "marker-symbol": "circle",
        "marker-color": "#444444"
      }
    },
    {
      "type": "Feature",
      "geometry": {
        "type": "Point",
        "coordinates": [
          -79.529026,
          8.910566
        ]
      },
      "properties": {
        "player": "Loading...",
        "distance": 2085.0790593476786,
        "marker-symbol": "circle",
        "marker-color": "#444444"
      }
    },
    {
      "type": "Feature",
      "geometry": {
        "type": "Point",
        "coordinates": [
          -72.544802,
          -13.165542
        ]
      },
      "properties": {
        "player": "Palin",
        "distance": 2356.758780462096,
        "location": "Cusco, Peru",
        "marker-symbol": "circle",
        "marker-color": "#444444"
      }
    },
    {
      "type": "Feature",
      "geometry": {
        "type": "Point",
        "coordinates": [
          -67.78504177402684,
          -16.26991366516831
        ]
      },
      "properties": {
        "player": "pandem",
        "distance": 2447.9006527609745,
        "location": "La Paz, Bolivia",
        "marker-symbol": "circle",
        "marker-color": "#444444"
      }
    },
    {
      "type": "Feature",
      "geometry": {
        "type": "Point",
        "coordinates": [
          -80.571151,
          24.959191
        ]
      },
      "properties": {
        "player": "OKobern",
        "distance": 3061.7853889693592,
        "location": "Florida, United States",
        "marker-symbol": "circle",
        "marker-color": "#444444"
      }
    },
    {
      "type": "Feature",
      "geometry": {
        "type": "Point",
        "coordinates": [
          -80.679917,
          24.863361
        ]
      },
      "properties": {
        "player": "Tones",
        "distance": 3062.287942370723,
        "marker-symbol": "circle",
        "marker-color": "#444444"
      }
    },
    {
      "type": "Feature",
      "geometry": {
        "type": "Point",
        "coordinates": [
          -80.13121,
          25.76653
        ]
      },
      "properties": {
        "player": "Talking Nonsense",
        "distance": 3094.0226004226693,
        "marker-symbol": "circle",
        "marker-color": "#444444"
      }
    },
    {
      "type": "Feature",
      "geometry": {
        "type": "Point",
        "coordinates": [
          -80.136449,
          25.795667
        ]
      },
      "properties": {
        "player": "Puerto Vallarta",
        "distance": 3096.7152437155396,
        "location": "Florida, United States",
        "marker-symbol": "circle",
        "marker-color": "#444444"
      }
    },
    {
      "type": "Feature",
      "geometry": {
        "type": "Point",
        "coordinates": [
          -80.2199055549291,
          25.778212661615584
        ]
      },
      "properties": {
        "player": "De Martian",
        "distance": 3101.1411764062173,
        "location": "Florida, United States",
        "marker-symbol": "circle",
        "marker-color": "#444444"
      }
    },
    {
      "type": "Feature",
      "geometry": {
        "type": "Point",
        "coordinates": [
          -68.015043,
          -22.350377
        ]
      },
      "properties": {
        "player": "Igorjan94 (wildtravel_club)",
        "distance": 3103.604066305849,
        "location": "Antofagasta, Chile",
        "marker-symbol": "circle",
        "marker-color": "#444444"
      }
    },
    {
      "type": "Feature",
      "geometry": {
        "type": "Point",
        "coordinates": [
          -88.74902823085087,
          15.823289434399953
        ]
      },
      "properties": {
        "player": "Martin",
        "distance": 3259.7829633831893,
        "location": "Izabal, Guatemala",
        "marker-symbol": "circle",
        "marker-color": "#444444"
      }
    },
    {
      "type": "Feature",
      "geometry": {
        "type": "Point",
        "coordinates": [
          -74.01233093227896,
          40.70145417434128
        ]
      },
      "properties": {
        "player": "Шоша",
        "distance": 4202.029522344461,
        "location": "New York, United States",
        "marker-symbol": "circle",
        "marker-color": "#444444"
      }
    },
    {
      "type": "Feature",
      "geometry": {
        "type": "Point",
        "coordinates": [
          -13.61751,
          28.93223
        ]
      },
      "properties": {
        "player": "Pinea",
        "distance": 5671.823791171618,
        "location": "Islas Canarias, Spain",
        "marker-symbol": "circle",
        "marker-color": "#444444"
      }
    },
    {
      "type": "Feature",
      "geometry": {
        "type": "Point",
        "coordinates": [
          114.1691473,
          22.27677
        ]
      },
      "properties": {
        "player": "dorian",
        "distance": 16968.32263723002,
        "location": "Hong Kong, China",
        "marker-symbol": "circle",
        "marker-color": "#ff0000"
      }
    }
  ]
}
