{
  "type": "FeatureCollection",
  "roundInfo": {
    "number": 3,
    "endedAt": null,
    "language": "es"
  },
  "features": [
    {
      "type": "Feature",
      "id": "target",
      "geometry": {
        "type": "Point",
        "coordinates": [
          -61.11325,
          4.73209
        ]
      },
      "properties": {
        "player": "Target",
        "distance": null,
        "location": "Bolívar, Venezuela",
        "marker-symbol": "star",
        "marker-color": "#000000"
      }
    },
    {
      "type": "Feature",
      "geometry": {
        "type": "Point",
        "coordinates": [
          -61.128584924359075,
          10.585860154170948
        ]
      },
      "properties": {
        "player": "Johann Sebastian Bach",
        "distance": 650.9126337589009,
        "location": "Sangre Grande, Trinidad and Tobago",
        "marker-symbol": "circle",
        "marker-color": "#d4af37"
      }
    },
    {
      "type": "Feature",
      "geometry": {
        "type": "Point",
        "coordinates": [
          -60.4933787,
          -3.1189445
        ]
      },
      "properties": {
        "player": "Rikk",
        "distance": 875.7084189695415,
        "location": "Amazonas, Brazil",
        "marker-symbol": "circle",
        "marker-color": "#c0c0c0"
      }
    },
    {
      "type": "Feature",
      "geometry": {
        "type": "Point",
        "coordinates": [
          -52.8345,
          5.3056
        ]
      },
      "properties": {
        "player": "mlc",
        "distance": 919.2315359727403,
        "location": "Cayenne, French Guiana",
        "marker-symbol": "circle",
        "marker-color": "#cd7f32"
      }
    },
    {
      "type": "Feature",
      "geometry": {
        "type": "Point",
        "coordinates": [
          -60.9580734,
          13.7333061
        ]
      },
      "properties": {
        "player": "Daws",
        "distance": 1001.0355182600179,
        "location": "Vieux Fort, Saint Lucia",
        "marker-symbol": "circle",
        "marker-color": "#444444"
      }
    },
    {
      "type": "Feature",
      "geometry": {
        "type": "Point",
        "coordinates": [
          -68.37040476806294,
          12.233361505503758
        ]
      },
      "properties": {
        "player": "Summitblvd",
        "distance": 1154.017022893336,
        "location": "Bonaire, Bonaire, Sint Eustatius and Saba",
        "marker-symbol": "circle",
        "marker-color": "#444444"
      }
    },
    {
      "type": "Feature",
      "geometry": {
        "type": "Point",
        "coordinates": [
          -74.06612,
          4.60865
        ]
      },
      "properties": {
        "player": "BD82",
        "distance": 1435.558068996544,
        "location": "Bogotá D.C., Colombia",
        "marker-symbol": "circle",
        "marker-color": "#444444"
      }
    },
    {
      "type": "Feature",
      "geometry": {
        "type": "Point",
        "coordinates": [
          -75.1572132,
          6.2344252
        ]
      },
      "properties": {
        "player": "Patxepi",
        "distance": 1563.3432178551136,
        "location": "Antioquia, Colombia",
        "marker-symbol": "circle",
        "marker-color": "#444444"
      }
    },
    {
      "type": "Feature",
      "geometry": {
        "type": "Point",
        "coordinates": [
          -72.544802,
          -13.165542
        ]
      },
      "properties": {
        "player": "Palin",
        "distance": 2356.758780462096,
        "location": "Cusco, Peru",
        "marker-symbol": "circle",
        "marker-color": "#444444"
      }
    },
    {
      "type": "Feature",
      "geometry": {
        "type": "Point",
        "coordinates": [
          -80.571151,
          24.959191
        ]
      },
      "properties": {
        "player": "OKobern",
        "distance": 3061.7853889693592,
        "location": "Florida, United States",
        "marker-symbol": "circle",
        "marker-color": "#444444"
      }
    },
    {
      "type": "Feature",
      "geometry": {
        "type": "Point",
        "coordinates": [
          -68.015043,
          -22.350377
        ]
      },
      "properties": {
        "player": "Igorjan94 (wildtravel_club)",
        "distance": 3103.604066305849,
        "location": "Antofagasta, Chile",
        "marker-symbol": "circle",
        "marker-color": "#ff0000"
      }
    }
  ]
}
